English_City,Value of Transactions,location_latitude,location_longitude
ABHA,5284379,18.2164282,42.5043596
BURAIDAH,8585629,26.331667,43.971667
DAMMAM,18155700,26.4367824,50.1039991
HAIL,5686382,26.9920987,41.4892578
JEDDAH,54909895,21.5810088,39.1653612
KHOBAR,11650070,26.3039999,50.1960237
MADINA,12544928,25.1354363,39.162594
MAKKAH,11122572,21.420847,39.826869
OTHER,100191654,21.4085271,39.8658433
RIYADH,104496608,24.638916,46.7160104
TABOUK,6046489,28.4012536,36.567049
